{
  "_source": "Waze coordinates scraped verbatim from carmel-kinneret.org race pages (2026). Ordered West to East.",
  "waypoints": [
    { "name": "יגור - סטופמרקט (זינוק)", "lat": 32.749490, "lng": 35.070269 },
    { "name": "אלרואי / זאבידת", "lat": 32.731031, "lng": 35.130195 },
    { "name": "מעיין הסוסים / נחל ציפורי", "lat": 32.756826, "lng": 35.174414 },
    { "name": "גן לאומי ציפורי", "lat": 32.755934, "lng": 35.275551 },
    { "name": "יער בית קשת", "lat": 32.752471, "lng": 35.384258 },
    { "name": "שבלי / למרגלות התבור", "lat": 32.694189, "lng": 35.384983 },
    { "name": "כפר קיש / מצפה אודי", "lat": 32.701987, "lng": 35.350977 },
    { "name": "נחל תבור / עין דור", "lat": 32.657800, "lng": 35.412300 },
    { "name": "רמת סירין / מצפה חללי החללית", "lat": 32.684500, "lng": 35.489000 },
    { "name": "מושבת כנרת", "lat": 32.724500, "lng": 35.561200 },
    { "name": "חוף צמח (שער סיום רשמי)", "lat": 32.705800, "lng": 35.580100 }
  ],
  "segments": [
    { "n": 1, "from": "יגור", "to": "מעיין הסוסים", "km": 11.4 },
    { "n": 2, "from": "מעיין הסוסים", "to": "ציפורי", "km": 10.2 },
    { "n": 3, "from": "ציפורי", "to": "יער בית קשת", "km": 15.3 },
    { "n": 4, "from": "יער בית קשת", "to": "כפר קיש", "km": 12.1 },
    { "n": 5, "from": "כפר קיש", "to": "עין דור", "km": 8.5 },
    { "n": 6, "from": "עין דור", "to": "חוף צמח", "km": 24.5 }
  ]
}